[
  {
    "id": "LOC_001",
    "name": "Royal Leamington Spa, England",
    "latitude": 52.2852,
    "longitude": -1.5205,
    "significance": "Birthplace and the opening scene of the family pressure that Crowley later turned into anti-religious self-making."
  },
  {
    "id": "LOC_002",
    "name": "Boleskine House, Loch Ness",
    "latitude": 57.266,
    "longitude": -4.471,
    "significance": "The Abramelin site that became one of the signature places in Crowley's magical geography."
  },
  {
    "id": "LOC_003",
    "name": "London, England",
    "latitude": 51.5074,
    "longitude": -0.1278,
    "significance": "The crowded center of Golden Dawn politics, publishing, and much of Crowley's public life."
  },
  {
    "id": "LOC_004",
    "name": "Cairo, Egypt",
    "latitude": 30.0444,
    "longitude": 31.2357,
    "significance": "The Cairo Working city where Liber AL and the Thelemic narrative of revelation take shape."
  },
  {
    "id": "LOC_005",
    "name": "Bou Saada, Algeria",
    "latitude": 35.2083,
    "longitude": 4.1759,
    "significance": "Desert base for the Enochian Aethyr work with Victor Neuburg and the abyssal visionary current."
  },
  {
    "id": "LOC_006",
    "name": "Paris, France",
    "latitude": 48.8566,
    "longitude": 2.3522,
    "significance": "A recurring writing city for exile, publishing, and the later French phase of Crowley's career."
  },
  {
    "id": "LOC_007",
    "name": "Cefalu, Sicily",
    "latitude": 38.0379,
    "longitude": 14.0229,
    "significance": "Home of the Abbey of Thelema, the most visible attempt to make his system into a lived community."
  },
  {
    "id": "LOC_008",
    "name": "New York City, USA",
    "latitude": 40.7128,
    "longitude": -74.006,
    "significance": "A key American city for lectures, exile, occult networking, and the postwar afterlife of his work."
  },
  {
    "id": "LOC_009",
    "name": "Hastings, England",
    "latitude": 50.8543,
    "longitude": 0.5729,
    "significance": "Crowley's final home, where the public legend and the private body meet at the end of the archive."
  },
  {
    "id": "LOC_010",
    "name": "Blythe Road, London",
    "latitude": 51.5106,
    "longitude": -0.2062,
    "significance": "Administrative ground zero for Golden Dawn conflict and one of the order's most contested addresses."
  },
  {
    "id": "LOC_011",
    "name": "Redhill, Surrey, England",
    "latitude": 51.2395,
    "longitude": -0.1707,
    "significance": "The family base after Leamington, where religious discipline and domestic surveillance sharpened."
  },
  {
    "id": "LOC_012",
    "name": "Cambridge, England",
    "latitude": 52.2053,
    "longitude": 0.1218,
    "significance": "Trinity College and the undergraduate setting where Crowley's literary and occult self-formation accelerates."
  },
  {
    "id": "LOC_013",
    "name": "Schonbuhl Glacier, Swiss Alps",
    "latitude": 46.8625,
    "longitude": 8.2369,
    "significance": "Alpine terrain that fed Crowley's self-image as climber, ordeal-taker, and a man of will."
  },
  {
    "id": "LOC_014",
    "name": "Karakoram / K2",
    "latitude": 35.8808,
    "longitude": 76.5133,
    "significance": "The expedition zone where Crowley tested stamina, fellowship, and the mythology of endurance."
  },
  {
    "id": "LOC_015",
    "name": "Darjeeling, India",
    "latitude": 27.041,
    "longitude": 88.2663,
    "significance": "A Himalayan staging point for travel, study, and the eastern routes in Crowley's biography."
  },
  {
    "id": "LOC_016",
    "name": "Tunis, Tunisia",
    "latitude": 36.8065,
    "longitude": 10.1815,
    "significance": "The North African exile stop after the Abbey years collapsed and the community unraveled."
  },
  {
    "id": "LOC_017",
    "name": "Berlin, Germany",
    "latitude": 52.52,
    "longitude": 13.405,
    "significance": "A Weimar-era hub for art, sex, and social experimentation in Crowley's wider orbit."
  },
  {
    "id": "LOC_018",
    "name": "Oxford, England",
    "latitude": 51.752,
    "longitude": -1.2577,
    "significance": "A site of student life, literary contact, and the social worlds surrounding Crowley's circle."
  },
  {
    "id": "LOC_019",
    "name": "Caxton Hall, London",
    "latitude": 51.4975,
    "longitude": -0.1375,
    "significance": "The public performance venue where Crowley tested ritual theater before an audience."
  },
  {
    "id": "LOC_020",
    "name": "Pasadena, California",
    "latitude": 34.1478,
    "longitude": -118.1445,
    "significance": "A later American occult afterlife site linked to Jack Parsons and the Agape Lodge."
  }
]